timestamp,timestamp_sample,xyz[0],xyz[1],xyz[2]
271702037,271702004,0.007544869,0.0030331672,-0.011932741
271733042,271733000,-0.0008888265,-0.0024187118,0.0102363825
271753037,271753004,0.014268226,0.011481763,0.0070980745
271772036,271772003,0.011620656,-0.0093413815,0.0061637447
271798031,271797998,0.002553457,0.013389459,-0.007971989
271818031,271817997,-0.0101152025,-0.004992091,0.010767914
271838074,271838040,0.0025021536,-0.007251525,0.008259737
271857031,271856998,0.0072815856,0.0113129085,-0.01480817
271882073,271882039,-0.011382598,0.004306409,0.005891432
271902037,271902004,0.008504523,0.012098901,-0.0103258705
271922031,271921997,0.0036249484,0.006875103,-0.002516009
271942031,271941997,-0.011993179,0.013108427,-0.007060667
271962037,271962004,-0.0077946316,-0.003625374,0.007251171
271987029,271986998,-0.004456752,-0.0054599945,-0.012441799
272007031,272006998,0.009982192,-0.0015492642,-0.0021432447
272026778,272026744,-0.011802319,-0.009543914,-0.013142433
272047071,272047040,-0.001982058,-0.0026115847,-0.004440865
272067031,272066998,0.012090521,0.008140864,0.00551674
272088029,272087998,0.0041364413,0.0059933565,-0.012954048
272112035,272112004,0.010313812,0.0038840314,-0.014404041
272130640,272130603,0.012622061,-0.0017312614,0.007877781
272152029,272151997,0.0038017186,-0.0056039197,0.014013431
272172038,272172004,0.0061957333,0.006178927,0.008924766
272197037,272197004,0.01156038,-0.012641047,0.0010632154
272218031,272217998,0.0019196591,0.0070373737,-0.0028025487
272238029,272237997,0.0058824066,-0.009718578,-0.00833077
272258031,272257998,0.012374619,-0.009982458,-0.014588446
272279031,272278998,-0.004891767,0.005031916,-0.0027916627
272297031,272296998,-0.012982806,0.011084566,0.01018055
272322071,272322039,0.0062934984,0.005032987,-0.0030046364
272342031,272341998,0.011416899,-0.010269513,-0.013957753
272362029,272361997,-0.009669371,-0.0040886714,-0.009944793
272384031,272383998,-0.008085391,-0.008051428,0.00080971007
272402037,272402004,-0.0012498199,-0.006634801,-0.005245621
272427029,272426998,-0.004821662,4.1676903e-05,0.0060245907
272447031,272446997,-0.0074986597,-0.00014663173,0.01225214
272467029,272466998,-0.0126285385,0.01383169,0.014674833
272488031,272487997,0.0013364975,-0.00049173756,-0.011111727
272507031,272506998,0.010521827,7.709188e-05,0.013820427
272531780,272531747,0.0030467794,-0.0030262733,0.0076562003
272552037,272552004,0.013306913,-0.0039417,0.010554932
272573029,272572997,0.009055197,0.011626941,0.013812381
272593031,272592997,0.0025880751,-0.011840438,0.010437359
272617031,272616998,0.014547956,-0.008253022,0.0006862213
272631472,272631440,0.0118818525,-0.014740803,0.0006654869
272658029,272657997,0.0022973462,0.0005805192,0.0011913278
272677029,272676997,-0.002826762,0.0011648096,0.0078366315
272699031,272698998,-0.012589826,-0.00071652426,-0.0019412761
272720037,272720004,-0.0031417087,-0.008442527,-0.004614895
272742031,272741998,-0.01050407,0.009958871,-0.008111157
272763034,272762998,0.003685221,0.0027862452,0.010826158
272783029,272782998,-0.0033907767,0.011899996,0.008489538
272802033,272802001,0.008747334,-0.010484726,-0.0077901976
272827037,272827004,0.010527287,-0.0018185931,0.008338631
272847031,272846998,0.009791072,-0.002731715,0.0035685524
272868034,272868001,0.0131511185,-0.0034233055,-0.0061543337
272888029,272887998,-0.00986042,-0.013546532,-0.0023433988
272907031,272906998,0.011493357,-0.0032132242,0.0072056926
272932036,272932003,0.0010141674,-0.001368783,-0.013398285
272952029,272951998,0.0033106997,-0.0036284982,-0.012921519
272972079,272972045,-0.008536413,0.0028238543,-0.0039512985
272992029,272991997,0.007826671,-0.005153619,-0.0050455537
273013031,273012997,0.00016158808,-0.003366911,-0.007970524
273037029,273036997,-0.0114806555,0.013416473,-0.0105137
273057031,273056998,0.0008194428,-0.006397795,0.0047424254
273077031,273076998,-0.0010116601,0.008771074,0.008525334
273098031,273097998,-0.0005157894,0.0071846046,0.013646751
273118035,273118004,-0.001237195,0.009590792,-0.0043658763
273142035,273142004,0.0032278218,0.0012711812,0.0076181833
273163031,273162998,-0.0053495495,0.0063179797,-0.01227415
273182029,273181998,-0.009212548,0.004217665,-0.0054516657
273202035,273202004,-0.0073136017,-0.006422209,-0.0024389059
273223033,273222997,0.0017399896,-0.011392331,-0.0012240425
273242031,273241997,0.0042967447,-0.0050814454,-0.0140902195
273268031,273267998,0.0063531357,0.014111592,-0.0049039586
273287031,273286998,-0.0015926703,-0.009270183,-0.00025605608
273308031,273307997,-0.01275011,-0.012689521,-0.007138381
273328037,273328004,0.0035821605,0.00433089,0.002401606
273352031,273351998,-0.004693129,-0.007600394,0.013220426
273373036,273373003,0.0116521735,0.008552704,-0.001283971
273393029,273392998,0.010680151,0.0018856314,0.014466004
273412073,273412039,-0.0076868297,-0.0018659055,-0.01134349
273433031,273432997,-0.0027239912,0.010452569,0.011868432
273453029,273452998,0.012598256,-0.007601277,-0.009593495
273477035,273476997,0.012594397,-0.0129282195,-0.0022639642
273498031,273497998,-0.011520159,0.0144491205,-0.0012201357
273518036,273518003,0.012296366,-0.010263477,0.0073741064
273538037,273538004,-0.0067285034,0.009437288,0.013931354
273562029,273561997,-0.005369221,-0.011148761,-0.0013951493
273582031,273581998,0.01244853,-0.0061187656,0.0081424825
273603031,273602998,-0.0014314101,0.0031849367,0.0004840364
273623037,273623004,-0.005270778,0.0021272877,0.0030810942
273642038,273642005,-0.011781942,-0.007076957,-0.012867364
273667034,273667001,-0.007928734,0.0047447663,-0.0103201205
273688031,273687998,-0.01438311,-0.0017720168,-0.0030677717
273708030,273707998,0.009182841,0.002583103,-0.010938002
273728042,273728008,0.0075642895,0.012088269,-0.0012478378
273748031,273747997,-0.02656697,-0.0010697194,0.00011096237
273770711,273770680,0.015913485,0.003245701,-0.004261902
273793031,273792998,-0.0021305284,0.0032225668,0.0038777452
273813037,273813004,0.0041068303,0.01477581,-0.01435208
273832038,273832004,0.00090675964,0.014232248,0.014649917
273852074,273852040,-0.006298486,0.012550172,-0.0008518301
273871021,273870987,-0.00050827145,0.0060160733,-0.006150943
273898036,273898004,-0.02497064,-0.0066417577,0.012003656
273918072,273918040,0.00032493257,0.0051470865,-0.009877028
273938037,273938004,0.012305013,-0.009831835,0.0038888438
273957031,273956998,0.0160553,-0.0030463745,0.013016988
273982029,273981997,0.015219727,-0.0054662293,0.011902696
274003031,274002998,0.0055648996,-0.0071614026,0.008105198
274022029,274021998,-0.052869562,0.014302126,0.008288426
274043031,274042998,0.004487963,0.008935332,-0.014319066
274063035,274063004,-0.0005446706,0.0058918064,0.010046346
274087031,274086998,0.022455983,-0.001376401,-0.0071797054
274107031,274106998,-0.026211087,-0.006258027,0.007553932
274128035,274127998,-0.07897117,0.038855772,-0.0063404157
274147034,274146997,0.027085617,-0.004386946,0.011492374
274167035,274167004,0.0049019293,-0.0060107238,-0.01399623
274192029,274191998,0.007466226,0.016133904,-0.0015918188
274212046,274212012,-0.08067138,0.026142526,0.005831988
274232038,274232004,-0.07227367,0.018623274,0.008452808
274253029,274252998,0.05207028,-0.025529843,0.0139123
274275907,274275874,0.016950412,-0.01969706,0.009210605
274297031,274296998,-0.046995286,0.0057445765,6.7802735e-05
274317040,274317004,-0.10309773,0.05538308,-0.004041253
274337074,274337041,0.046635594,-0.020673105,-0.0031071235
274357031,274356997,0.06139474,-0.03059572,-0.012208329
274380908,274380876,-0.040731426,0.009605916,-0.007808792
274402044,274402004,-0.09432834,0.038392875,0.00064973976
274422035,274422003,-0.10393057,0.046371255,-0.010951486
274447031,274446997,0.0603615,-0.028764736,-0.000430643
274468031,274467998,0.07381125,-0.024758246,0.007497922
274487029,274486997,0.005209679,0.0027386749,-0.010774319
274508031,274507997,-0.043769103,0.010492197,0.013894413
274528029,274527998,-0.09448966,0.035842184,-0.009774172
274552029,274551998,-0.078616686,0.07511388,0.01155448
274572037,274572004,-0.076249436,0.060615413,0.014733889
274592031,274591997,-0.044809718,0.03315453,-0.0025876397
274613074,274613040,0.007764664,-0.0060979174,-0.0047101574
274632031,274631998,0.03111248,-0.023516744,0.001831935
274653031,274652998,0.045328997,-0.008826115,-0.0038770733
274677031,274676998,0.051574413,-0.013216279,-0.007824984
274697029,274696997,0.064119846,-0.013428195,-0.009427299
274718029,274717997,0.04457866,-0.005645357,-0.0067386557
274737031,274736997,0.069323935,-5.0932533e-05,0.00726441
274762037,274762004,0.051533084,-0.026729736,-0.00029139465
274782037,274782004,0.029444207,-0.034770764,-0.00052459846
274802036,274802004,0.020607788,-0.027222184,0.0033189948
274822074,274822041,-0.0036839917,0.0052408297,0.0069679986
274843035,274843004,-0.036230806,0.0064751073,0.0008470198
274867031,274866997,-0.009685498,0.027844733,0.0107154045
274887035,274887004,0.005101331,0.015762,0.005698539
274907031,274906998,0.016971348,0.0060927626,0.0011218662
274928033,274928001,0.043084145,-0.015981048,0.00792592
274947036,274947003,0.03790008,-0.029258888,0.0076666693
274972043,274971997,0.058099795,-0.028656736,0.015570848
274992038,274992004,0.043295283,-0.014157833,0.009925905
275012029,275011997,0.03902735,0.00502692,0.006636525
275033031,275032998,0.05143599,0.01648684,-0.0031208862
275053072,275053040,0.0202487,0.0020571898,-0.008531725
275077031,275076997,0.028213048,0.014491186,0.015381038
275097073,275097040,0.021756297,-0.019934624,-0.0048705004
275117029,275116997,-0.0043653897,-0.038423385,-0.009172794
275137037,275137004,-0.005493967,-0.037615735,-0.007236894
275158031,275157998,0.00938812,-0.02754735,0.006907597
275178037,275178004,0.021868765,-0.0038284,0.002244781
275201282,275201242,0.028495375,-0.012416129,-0.013079541
275222034,275222001,0.043388262,0.0008357917,0.006935812
275243037,275243004,0.027310813,-0.016175937,-0.008444968
275262074,275262041,0.038637742,0.0019207514,-0.0051335916
275287029,275286998,0.031925716,-0.008602891,-0.012260169
275305877,275305843,0.010608141,-0.010412005,-0.0047266725
275327035,275327003,-0.013144986,-0.0046498515,-0.0131114395
275348029,275347997,0.0020609028,0.010969926,0.0125630945
275368029,275367998,0.009556791,0.014930199,-0.010507949
275392029,275391997,0.014228825,-0.0017322361,0.0057988316
275413031,275412998,-0.0038084642,-0.026818745,-0.013126438
275432029,275431997,0.012198835,-0.02605973,-0.007713279
275452031,275451998,-0.0028204387,-0.021735804,0.001604599
275473029,275472998,-0.007916811,-0.015101301,0.008274694
275497029,275496997,0.00680761,-0.04244954,-0.01020223
275518031,275517998,-0.0017435494,-0.039032348,0.0042950707
275537071,275537040,-0.013680536,-0.0075462596,0.00525932
275557037,275557004,-0.020817706,0.007242225,-0.010760109
275577029,275576998,-0.008716908,0.009789123,0.013535364
275602031,275601998,-0.029564751,0.009913583,-0.0063707763
275622029,275621997,-0.012402624,-7.103324e-05,0.013118521
275642037,275642004,0.03817105,0.0063565136,-0.01052873
275662037,275662004,0.029247677,-0.0044741603,-0.0043577184
275683034,275683001,0.029315528,0.0005823629,-0.015734432
275707031,275706998,0.041279506,-0.0049188724,0.0017981885
275727029,275726997,0.029017614,-0.01884326,0.0028491763
275747076,275747043,0.013409779,0.0150894,0.0012674112
275767033,275767001,-0.010077614,0.014321019,0.003045473
275783029,275782998,-0.00081680244,-0.008124636,0.0029781733
275810837,275810804,-0.015258306,-0.005628724,-0.011919845
275830873,275830840,-0.027688485,0.0029612205,0.0011016375
275852029,275851997,-0.03677482,-0.012250088,0.013319252
275872037,275872004,-0.016669933,0.010122289,-0.007840106
275893036,275893003,-0.027956929,-0.0050922255,-7.7662e-05
275917029,275916998,-0.0009324091,0.003753619,0.004087507
275937031,275936998,0.017356265,0.00019364622,-0.004154666
275957037,275957004,0.024628568,-0.019844744,0.010983385
275978071,275978039,0.006068595,-0.056431223,0.007982011
275997031,275996997,0.00084031775,-0.046519715,-0.01245346
276022076,276022043,-0.025423022,-0.045562457,-0.0058968575
276042048,276042015,-0.022278357,-0.021970378,-0.0031955861
276063029,276062998,-0.014747864,0.0145455245,0.013385533
276083036,276083003,-0.01572574,0.0140694585,-0.0114537785
276103031,276102998,0.0026887064,0.014276968,0.009678795
276127037,276127004,-0.02024385,0.010738203,0.008955512
276147037,276147004,-0.0035977033,0.013944097,-0.005479292
276168029,276167998,-0.03519707,-0.010825975,0.0052706297
276188031,276187997,-0.015718706,-0.008392398,-0.014215139
276208037,276208004,-0.03062586,0.01193241,-0.009571365
276232040,276232004,-0.012984663,0.009601304,0.012249052
276252037,276252004,0.0044998247,0.010611878,0.01264771
276273036,276273003,-0.0033207508,0.0026828705,-0.0036131064
276293029,276292997,-0.001694939,-0.019010048,0.0049158386
276313029,276312998,-0.0030550172,0.0012617399,0.0056219697
276337031,276336998,-0.0055819126,-0.0040847436,-0.009392085
276357029,276356998,0.011440618,-0.004485193,0.013301631
276378031,276377998,0.0036903652,-0.023552535,0.009370328
276398029,276397997,0.008798975,-0.013768045,-0.0096545685
276421313,276421281,-0.008289086,-0.012252019,0.0054097916
276443029,276442997,-0.021792782,0.017827759,-0.0031161134
276462072,276462041,-0.010444357,0.022654759,-0.011931238
276487034,276486998,-0.008117315,0.022928061,0.0108391065
276507029,276506997,-0.01240556,0.009751412,0.011736363
276527031,276526997,-0.023900248,-0.005182919,-0.015413938
276547037,276547004,-0.011705167,0.006386292,-0.009202764
276572072,276572041,-0.027240433,0.023657992,0.007843732
276588029,276587997,-0.008670661,-0.0025755865,0.0006291401
276612031,276611998,-0.004562112,-0.021859383,0.0037734534
276632037,276632004,-0.008763502,-0.030734716,0.0070963386
276652037,276652004,0.002694144,-0.014694721,0.008010901
276673033,276673001,-0.01637902,-0.013268089,-0.014110611
276697036,276697003,-0.013903989,0.009095464,0.0058427895
276718037,276718004,-0.030338522,0.005127977,-0.0129501475
276737077,276737044,-0.013347957,0.008732841,0.014032551
276757035,276757004,-0.024225332,0.028909035,0.003446384
276777037,276777004,-0.018303014,0.012829208,0.014935766
276802040,276802004,0.0010753468,0.016255569,0.0032404948
276823029,276822998,-0.014483629,-0.004715527,-0.014008542
276843036,276843003,-0.0006637236,-0.013826906,0.0075895498
276863050,276863016,-0.029204784,-0.0039226897,0.0036801763
276887036,276887004,-0.0132007385,-0.013401584,0.013518461
276907031,276906997,-0.037173588,-0.011619562,0.0047409115
276927037,276927004,-0.022968018,0.0091422405,0.011036917
276947037,276947004,-0.02626114,0.0029206155,0.0053578904
276967038,276967004,-0.00039080513,-0.008072785,0.0133620985
276992031,276991998,-0.0014414936,-0.013241099,-0.0076429355
277013029,277012998,-0.020427614,-0.009947251,0.008112042
277033037,277033004,-0.014977238,-0.0054130256,-0.00464005
277052029,277051997,-0.008178338,-0.002818428,0.0078026056
277073031,277072997,-0.005715447,0.0052941986,0.0073372507
277097029,277096997,-0.010092993,0.002525893,0.013785248
277117029,277116998,-0.008565303,0.014583453,-0.0068384805
277136263,277136225,0.00022993374,0.016428418,0.011655729
277157029,277156997,-0.02943932,0.023641013,0.0067799236
277177074,277177041,-0.020879872,0.00927146,0.0103222495
277198029,277197997,-0.013857199,0.0063673565,0.011962022
277222037,277222004,-0.019645372,-0.0140737165,-0.01262558
277241422,277241389,-0.00545213,0.0015763214,0.008474241
277262031,277261997,0.013218475,-0.0051953197,-0.005618492
277283031,277282998,-0.002426746,0.0040761116,0.00012813282
277302029,277301998,-0.0016845422,0.010082215,-0.00267699
277327033,277326998,0.018144535,0.0008369746,0.0062832194
277347031,277346998,0.0054937317,-0.003505082,-0.011880788
277368031,277367998,0.008062345,-0.0036358123,-0.012044674
277388036,277388004,-0.010070609,-0.011519991,0.0075208074
277412037,277412004,0.010651309,-0.004102329,0.011359697
277433029,277432998,0.0028569358,0.005549486,-0.005345826
277452074,277452041,-0.004766532,0.010429787,0.006622207
277472031,277471997,0.016615834,-0.0021335818,0.00040627894
277492037,277492004,0.008255063,0.027801437,0.013139337
277512031,277511997,-0.0023771052,0.018283542,-0.003063929
277537029,277536998,0.019329065,-0.016325993,0.008816212
277557031,277556998,0.026285797,-0.021838384,0.004307332
277578037,277578004,0.00036324962,0.007186298,-0.014836232
277597031,277596998,0.0012025028,0.0077928263,-0.01104766
277622033,277622001,-0.026136689,0.010294529,0.0059437635
277642037,277642004,-0.02909106,-0.000584277,-0.010099137
277663034,277663001,-0.02366508,0.006380217,0.005403542
277683077,277683039,-0.026768366,0.010147483,0.00015697253
277703029,277702997,-0.013937766,-0.0025956505,0.004979654
277727074,277727041,0.0016835288,-0.0020515441,-0.010232457
277746128,277746093,-0.011470317,0.013024543,-0.0022702052
277768031,277767998,0.00038331322,0.0075302776,0.005662474
277788031,277787998,0.012871819,-0.0013395078,0.005529046
277808036,277808003,0.018834146,-0.009734259,0.001153388
277830957,277830923,0.04288171,-0.0030467694,-0.023124108
277853038,277853004,0.02048679,0.01350523,-0.011274378
277872037,277872004,-0.0022298442,0.0012496024,-0.00072382536
277893031,277892998,-0.013313837,0.015114234,-0.009247901
277913029,277912997,-0.024010416,0.0045480803,-0.011144997
277937037,277937004,0.0018668608,0.015766837,0.0016648424
277957029,277956998,0.02315997,-0.0042356066,-0.020792086
277977031,277976998,0.0038032038,0.01803594,-0.012765149
277998036,277998003,0.030317754,0.020252896,-0.005167957
278018031,278017997,0.00468282,0.017769631,-0.025530845
278037033,278037001,-0.0018403304,-0.0013076428,-0.013191623
278063031,278062998,0.010377198,0.0050759967,-0.015594319
278084031,278083998,-0.0061993534,-0.010021179,-0.0037934917
278104037,278104004,-0.0015249343,-0.012481687,-0.008997347
278123074,278123041,0.004418662,-0.010752595,-0.0019045966
278142031,278141997,-0.024549719,-0.0044377563,0.0013318886
278167078,278167041,-0.004351375,-0.004679953,-0.009536735
278188035,278188003,0.0008628679,-0.010450961,-0.017315567
278208029,278207998,0.008995033,-0.02073817,-0.00090174895
278227037,278227004,0.028359568,-0.0177569,-0.014156006
278248029,278247998,-0.0028290236,-0.029530406,0.004452898
278272029,278271998,-0.00800897,-0.035512418,-0.0037492218
278293035,278293004,-0.013221803,-0.052434556,0.009528729
278313029,278312998,-0.013953061,-0.016971955,0.013753747
278332077,278332044,0.010655218,-0.024787795,-0.0074582654
278357029,278356998,0.023420043,-0.0034590885,-0.0058199265
278378036,278378003,0.013079681,0.011202013,-0.00051253283
278398073,278398039,0.016068675,0.015807815,-0.0015032677
278417029,278416997,0.0319381,0.03913449,-0.0044331984
278437031,278436998,0.028809458,0.020875726,-0.007078929
278461219,278461186,0.040111948,0.021740634,0.0034922396
278482029,278481998,0.029778372,0.016413758,0.009801512
278502041,278502008,0.015138668,0.0003416785,-0.0076547503
278523031,278522998,0.008366232,-0.00031582496,-0.0073307753
278542035,278542004,-0.0025756732,-0.016056957,0.006887204
278567029,278566998,-0.0010328111,-0.004219488,0.005618795
278588031,278587997,-0.030927207,-0.004624901,-0.0021135875
278607071,278607040,-0.01940343,-0.006335126,0.012729757
278627029,278626997,-0.015527934,-0.013531656,0.0039836997
278647047,278647004,-0.0075860824,-0.009113739,-0.007160774
278672029,278671998,0.0024967492,0.019189728,0.0005921088
278692037,278692004,0.014182882,0.009882729,-0.0008781386
278713031,278712998,0.008536484,0.020363173,0.006203603
278732031,278731997,0.0052367556,0.0061999555,0.014419687
278752037,278752004,-0.01569598,-0.0036957487,0.007398554
278777037,278777004,-0.016718937,-0.018730562,0.012814377
278797031,278796998,-0.005732583,-0.02071403,0.003921689
278818037,278818004,0.011492221,0.0034010338,-0.0016164011
278838076,278838043,-0.015772615,-0.004842443,-0.0012809406
278857031,278856998,-0.02085258,-0.004930383,0.005816571
278878029,278877998,-0.00110563,0.015676057,-0.007922462
278903035,278903003,0.0015271223,0.0114138,-0.0028937105
278922035,278922001,-0.0131641915,-0.013801605,0.006163502
278943031,278942998,-0.010522184,0.0026297271,0.0029358247
278962040,278962000,-0.006834395,0.002113271,0.013626913
278983035,278983004,0.0129943015,0.009241371,0.0024050563
279007034,279007001,0.013970905,-0.00320364,-0.0036810336
279028031,279027998,-0.0025162497,-0.0050889817,-0.007560376
279048035,279048003,0.0048199063,0.0035581144,0.003676694
279067031,279066998,-0.02449599,0.005332511,0.0042886497
279092037,279092004,0.0021363082,-0.011201019,-0.007922271
279112035,279112004,-0.002537365,-0.0039042938,0.0077341194
279133033,279133001,0.0005958865,-0.026218753,-0.01702392
279152035,279152004,0.001671146,-0.005625155,-0.00036363004
279172037,279172004,0.003450865,-0.012925694,-0.00842864
279192031,279191998,0.006829347,-0.0055721123,0.007473875
279218031,279217998,0.005606219,0.008616451,-0.011185774
279234085,279234053,-0.007989965,0.030787587,-0.012132039
279258029,279257998,0.0019792828,0.043781392,0.010552593
279277029,279276998,-0.0060124784,0.038573045,-0.005280309
279302037,279302004,0.0028954027,0.02983542,0.006252975
279323031,279322998,0.002906034,-0.00981579,0.0054461583
279342033,279341998,0.008346839,-0.032658167,-0.01439301
279362029,279361998,0.0031329014,-0.0427343,-0.008224118
279382037,279382004,-0.039114688,-0.04252925,-0.0067573027
279407029,279406998,-0.032361772,-0.032556005,-0.0063635563
279427031,279426998,-0.0040215272,-0.009265997,0.0059094485
279448035,279448003,0.0022531282,-0.006205707,0.011020589
279468037,279468004,0.019044505,0.019617835,-0.010261703
279488036,279488003,0.032670677,0.032616127,0.014658208
279512040,279512007,0.025979945,0.0073281946,0.014456315
279533031,279532998,0.0273142,0.008294211,0.0062785675
279553071,279553039,0.0077392226,0.02034785,0.004438004
279572038,279572004,0.013299044,-0.001637359,-0.0002567116
279590733,279590701,0.017905513,0.007508857,0.0076830457
279612031,279611998,0.014094116,0.01249914,0.01895618
279638036,279638003,-0.00025047222,0.01006549,-0.0015515313
279658031,279657998,0.0023351815,-0.00387397,0.0039737932
279678029,279677998,0.005180204,-0.011981879,-0.00031244155
279697029,279696997,0.00024736227,0.0030990215,0.002509183
279717040,279717007,0.014828197,0.0025735605,-0.007871273
279743029,279742997,0.016515745,0.016973976,-0.0022720299
279763029,279762998,-0.0022894656,0.0057820566,-0.0055943653
279783029,279782998,0.006643727,0.0028509926,0.010118294
279802031,279801998,-0.023380194,0.02107974,0.0154668735
279827031,279826998,-0.021448432,-0.007051858,0.013900209
279847035,279847004,-0.009983029,-0.004560486,0.0050591007
279867035,279867004,0.0017468604,0.002669357,0.01331311
279887037,279887004,0.0064346967,-0.0029244826,-0.0060452996
279908037,279908004,0.028622815,0.014128809,-0.0010513474
279927071,279927040,0.017870823,-0.0005004884,-0.0014653421
279952037,279952004,0.008632033,0.01859681,0.010694121
279972031,279971998,0.00094111974,0.023581492,0.009325144
279991173,279991140,0.021585504,0.039604835,-0.009400709
280013029,280012997,0.037708864,0.014155387,0.00017020572
280033031,280032998,0.0098441,0.0127417585,0.010980582
280058034,280058001,0.0008146252,0.00013112146,0.0049049566
280078029,280077998,-0.009576039,-0.00039676242,-0.007480867
280096280,280096241,-0.026058225,-0.005873204,-0.015033465
280117029,280116998,-0.03447655,-0.0062617003,0.0056262854
280142029,280141998,-0.04023863,0.00022408819,0.0007957124
280162040,280162007,0.0055462327,0.039110314,-0.013516698
280182038,280182004,0.026634868,0.019635608,-0.012358855
280202031,280201997,0.044052664,0.017481903,-0.0071719135
280222037,280222004,0.017662715,0.018996522,-0.0029357125
280243031,280242998,0.025067165,0.019027136,-0.009107025
280268031,280267998,0.0051759044,-0.0113224555,0.0021476028
280287054,280287020,-0.015496952,0.00014844525,0.0060353964
280307037,280307004,0.017966587,-0.017822424,-0.009879061
280328036,280328003,0.00989878,-0.024101485,-0.016296009
280352029,280351998,0.01248402,-0.010730165,-6.9273454e-05
280373036,280373003,0.007562817,-0.00088107644,-0.0024534375
280392035,280392004,-0.009880652,-0.009222248,-0.0014118776
280412074,280412040,-0.0037990098,-0.014024774,0.0101195425
280433037,280433004,-0.006603856,-0.00976236,-0.004372051
280452029,280451998,-0.022711864,-0.023284014,-0.01263609
280477031,280476998,0.006372573,-0.0005341439,0.005436725
280497166,280497133,0.0027288687,0.00042405858,-0.015807541
280518031,280517998,-0.015236684,0.022017123,-0.010558087
280538029,280537997,0.013485927,0.019618763,0.006374486
280557029,280556998,0.009619537,0.009899324,-0.012815608
280582029,280581998,-0.0031650309,0.022371579,0.004673991
280601461,280601427,-0.003983243,0.016307613,0.012151441
280623029,280622998,-0.0039022618,0.008435731,0.007141887
280643073,280643039,-0.00081319653,0.014012672,0.005013952
280667037,280667004,0.011952912,-0.0034646562,-0.001144791
280688029,280687998,-0.0052657956,-0.025386937,0.008372823
280706663,280706630,1.8861683e-05,-0.011957777,-0.0012281891
280727029,280726997,0.0073607145,-0.026076436,-0.013379332
280747037,280747004,0.012655188,-3.604262e-06,0.01239616
280772031,280771998,-0.018146703,-0.021613156,-0.0015519756
280793031,280792998,-0.017274776,-0.019728988,-0.006136078
280811091,280811059,-0.020836145,-0.013371962,0.012860575
280832029,280831997,-0.004638534,0.016807968,-0.010328436
280853036,280853003,0.010252398,0.019565644,-0.011732648
280872031,280871998,0.009425435,0.009814004,0.014233071
280897073,280897039,0.016811622,0.019800615,-0.00041723892
280917033,280917001,0.0294658,-0.0010356903,-0.00976056
280938037,280938004,0.03068397,0.0004651905,0.00807511
280957031,280956997,0.010906216,-0.022698967,0.008855045
280977038,280977004,0.032800388,-0.028889537,0.0042854142
281002042,281002004,0.033840198,-0.0125137195,-0.012834402
281023031,281022998,-0.009104048,-0.026162563,0.0060532265
281043038,281043004,0.004533761,-0.017839419,0.00012453894
281063073,281063039,-0.0141069805,-0.0028824308,0.015063818
281082031,281081998,-0.03431953,-0.012006851,3.924042e-05
281107073,281107039,-0.037042715,0.012529577,-0.0085275415
281128031,281127998,-0.023201203,-0.0029457884,-0.0047384715
281148037,281148004,-0.01635051,-0.0011160418,0.00809072
281167037,281167004,-0.007033095,-0.012412598,-0.01361726
281187031,281186998,-0.016352866,-0.010493439,-0.011031065
281211638,281211605,0.01277459,0.00857184,0.013049918
281232031,281231998,0.011757661,0.011265892,0.014253942
281253031,281252998,0.016569791,-0.0058109933,0.010283391
281272076,281272039,0.0072457343,-0.006731648,0.004310982
281297031,281296998,-0.0048604305,-0.0065534003,-0.0022275252
281316669,281316637,-0.03403533,0.010773532,0.011947596
281337031,281336998,-0.013651966,0.008636393,0.0009953608
281358037,281358004,-0.022725802,0.006665479,0.011607817
281377031,281376998,-0.0033843694,-0.006681919,-0.010850144
281402037,281402004,0.020469325,-0.0024474317,0.008159171
281422047,281422015,0.0016441304,-0.029515674,0.006372719
281443031,281442998,0.006826772,-0.014769716,0.004102001
281462037,281462004,0.011977527,0.0018417095,-0.010978591
281482035,281482004,-0.00552277,-0.0013655672,0.0046102535
281504031,281503997,0.008209452,0.0031714842,0.00010804482
281526106,281526073,-0.013145514,0.0060077086,0.012581166
281547073,281547039,-0.019445466,0.016720423,0.0083844485
281567033,281567001,-0.021045225,0.012497262,0.009591797
281587037,281587004,-0.023548575,-0.0031039438,-0.012014929
281612037,281612004,-0.0038200687,-0.026761131,-0.0022689132
281632031,281631998,-0.02318613,-0.042890195,0.011279604
281652038,281652004,-0.008795872,-0.037008625,-0.005826126
281672029,281671997,-0.0013131022,-0.021648902,-0.0041058525
281692031,281691998,-0.0074746576,-0.0096041905,-0.014098448
281712074,281712040,0.010192185,-0.009554802,0.0054684975
281737029,281736998,-0.0013066443,0.01160493,-0.006682981
281757037,281757004,-0.0068989946,-0.0068734214,-0.011044618
281777038,281777004,0.008727097,-0.029222967,0.015063033
281798033,281798001,-0.0073113027,-0.038563143,-0.0035870925
281822077,281822044,-0.019050723,-0.026379056,-0.004458888
281843033,281842998,-0.0010579008,-0.022406256,0.0029681458
281863031,281862998,0.00012668749,0.015655499,-0.0132077625
281882037,281882004,0.01918643,0.015212752,0.004777006
281902035,281902004,0.013676895,0.021112654,0.0053937826
281927029,281926998,0.030631043,0.045039248,0.009520228
281942033,281942001,0.022405883,0.03691912,0.01157995
281968029,281967998,0.006387084,0.020151997,-0.00068175234
281987084,281987052,0.017516647,-0.00067101256,0.012968111
282007037,282007004,-0.0029217284,-0.0041769147,0.00025744553
282032029,282031998,-0.0183951,0.009568305,0.007694033
282052035,282052001,-0.017631656,-0.006629663,0.0035437054
282073031,282072998,-0.020597037,0.0116547,-0.014530813
282092031,282091997,-0.017720558,0.024700657,0.0034755508
282112038,282112004,-0.014200555,0.013318663,-0.0012214219
282137037,282137004,0.001932255,0.02419196,0.009997868
282158035,282158004,0.035342667,0.025879057,0.0035950805
282178037,282178004,0.032283448,-0.002970751,0.0032825598
282198029,282197998,-0.006510591,-0.0032690873,0.009615464
282217029,282216997,0.001184829,0.013700876,0.007100849
282239031,282238997,-0.012216255,-0.012021108,-0.009297333
282262037,282262004,0.000119015735,-0.00612031,0.0058293464
282283037,282283004,0.01020517,0.018260075,0.0019213937
282303035,282303004,-0.0063481014,-0.002621814,0.0012172733
282322040,282322007,0.013383616,0.012789788,0.012588314
282347031,282346998,0.009868015,0.007959659,0.002647044
282363035,282363004,0.00075559807,0.016866663,0.0050852224
282388031,282387997,4.268559e-05,0.0030334282,-0.0073751113
282408037,282408004,0.0031592327,-0.010283897,0.013940572
282428071,282428040,0.013653409,-0.029750025,-0.008362994
282452037,282452004,0.0077738557,-0.01659192,0.007994796
282472073,282472039,0.0034985964,0.0077908663,0.010687963
282493037,282493005,-0.0070211226,0.0131350225,0.010016268
282513029,282512998,-0.007216103,0.002000092,0.009174629
282533031,282532998,0.0029248237,0.008621547,0.0026597027
282552037,282552004,0.027616177,0.019248087,0.0053645372
282578031,282577997,0.02645087,0.022655945,0.0076867044
282598036,282598003,0.015431003,0.012871251,0.0040513957
282617031,282616997,0.015318246,0.011249364,-0.00093029544
282637037,282637004,-0.0060658944,0.011638259,0.0072258776
282662037,282662004,-0.012243108,0.007920871,0.013414953
282682073,282682039,0.0052324124,-0.00037075538,0.0048749833
282703029,282702998,0.0013652312,0.024858374,-0.0005364035
282722036,282722003,0.009508481,0.0060573365,0.0013146938
282743031,282742997,0.002466338,0.009532952,0.009636688
282763031,282762998,0.011388586,0.0014559714,-0.0026249746
282788038,282788004,0.0005616464,0.0019007827,-0.012444946
282808031,282807998,-0.005899491,0.016744152,0.010369578
282828029,282827998,0.00950883,-0.00079135376,0.01000313
282848071,282848039,0.004725343,-0.002299537,-0.00024716635
282868031,282867998,-0.017427037,-0.001773819,-0.013845526
282893031,282892997,-0.012974346,0.022326915,0.0042964434
282912031,282911998,0.0065246196,0.017146545,0.0026051404
282933036,282933003,0.0126077775,0.017611582,-0.01157931
282955947,282955915,0.019028392,-0.004560303,-0.0077892235
282972034,282972001,0.018084023,-0.022755295,-0.009443244
282997029,282996997,0.0022890072,-0.053853422,-0.008568989
283018031,283017998,-0.030447317,-0.03262577,-0.008860543
283037029,283036997,-0.030897766,-0.029936247,-0.00075751875
283056857,283056824,-0.052241027,-0.0025813486,0.011360098
283077031,283076998,-0.048145294,0.00082559895,0.006584995
283102074,283102041,-0.0064958334,0.018272532,0.014620143
283122029,283121998,0.004026086,0.0074985283,0.0014733983
283143035,283143004,-0.00026312814,0.0047068726,-0.012842404
283160944,283160910,0.009284854,0.0097789895,0.0067914324
283183031,283182998,-0.0053490424,-0.0008720362,0.015693607
283207031,283206998,-0.016499233,0.0014617568,-0.011465965
283227031,283226998,-0.001876106,0.0179494,0.010654712
283247029,283246997,-0.00941951,0.0140744,0.0032678652
283269031,283268998,-0.0031632883,-0.01792522,0.0068512065
283288029,283287997,0.025557134,-0.015743123,-0.007982745
283313034,283313001,0.014260322,-0.049514513,0.009835952
283332031,283331998,0.01655923,-0.04987874,0.0033846851
283352037,283352004,0.02108066,-0.039774466,0.005385512
283372031,283371998,-0.010265458,0.006977453,0.012600751
283397029,283396998,0.009045513,0.015616007,0.013904275
283418037,283418004,0.02857675,0.009825909,-0.01228052
283437038,283437004,-0.0036432394,0.02966287,0.009871268
283457035,283457004,0.0057246024,0.0056599868,0.010774493
283477035,283477004,-0.02701581,-0.016698884,-0.012301895
283502031,283501997,-0.01914173,-0.04076328,0.012009017
283522037,283522004,-0.021367552,-0.018917138,-0.015079757
283543029,283542998,-0.00917126,-0.03492886,0.008065516
283562037,283562004,0.013452128,-0.02258139,0.012870542
283583035,283583004,0.015373762,-0.0029103567,-0.004043206
283603031,283602998,0.010261393,0.03443556,0.009180875
283628031,283627998,-0.028198697,0.02372765,-0.015458671
283647039,283646998,-0.007560574,0.029510135,0.008702422
283665980,283665945,-0.024493797,0.01193304,0.00038120674
283687037,283687004,-0.014671649,-0.016466092,0.0024701958
283707073,283707039,-0.0057987785,-0.014868769,-0.0022069768
283733050,283733004,0.013842259,-0.012841703,-0.011398584
283752031,283751998,0.01711557,-0.02546372,0.0032647802
283772037,283772004,0.0034173748,-0.023953322,-0.0025152029
283793034,283793001,0.015227756,-0.001694202,0.0053814705
283812036,283812003,0.015567433,0.013994723,0.007042507
283837029,283836998,-0.016463665,0.008740145,0.004807058
283858031,283857998,-0.021668036,0.006060904,-0.013603079
283878029,283877998,-0.0010632467,-0.010168105,-0.013074016
283898031,283897997,-0.008073561,0.0035581775,-0.011608324
283917029,283916997,-0.015946822,0.012186497,-0.0015987915
283942037,283942004,-0.003182608,0.016469946,-0.010154898
283962031,283961998,-0.0049271653,-0.003020514,0.0065473733
283983037,283983004,0.022343256,0.0024873186,-0.0060559884
284003035,284003004,0.0061819893,0.027080862,0.0066842297
284027033,284026998,0.024225147,0.00043681095,-0.013600393
284048074,284048040,-0.00017028302,0.0054143965,0.010529161
284067037,284067004,-0.015274254,0.006086431,0.013148267
284088037,284088004,-0.015027332,0.0006620395,0.002224678
284107037,284107004,0.00067771587,-0.02744535,-0.011712155
284127031,284126998,-0.012226349,-0.040941358,-0.0062484453
284153051,284153018,-0.019630639,-0.010475774,0.009534451
284172031,284171998,0.009497604,-0.022634272,-0.004793589
284193029,284192998,0.005695367,0.0050862967,0.007471053
284212031,284211998,0.018414754,0.011343858,-0.010910567
284232031,284231998,-0.003642862,0.009418612,-0.001994517
284258035,284258004,0.0085005,0.035331633,0.0070784697
284278035,284278003,0.005557377,0.02442717,0.00031270884
284297040,284297006,0.020104513,0.0059052943,-0.008530093
284317037,284317004,-0.00477522,0.0030447077,-0.006327604
284342040,284342007,0.008609384,-0.015539771,0.008573863
284362031,284361998,0.014910103,-0.013187536,-0.014489679
284382029,284381998,0.012856773,-0.009444921,-0.0022322715
284403035,284403004,0.012752263,-0.017346269,0.0033010265
284422073,284422039,-0.016061977,-0.030018253,-0.014457909
284447037,284447004,-0.0052464535,-0.01690454,-0.0062062754
284467029,284466998,-0.014789382,0.013978339,0.0107914405
284486401,284486369,-0.0031707056,0.022435453,0.0018616874
284508029,284507998,0.017959345,0.0070505086,-0.014108839
284528029,284527997,0.004540187,0.022487959,0.004819583
284552029,284551998,0.011234131,0.010953806,-0.0012253099
284573031,284572997,0.019882547,0.019479131,-0.0015502296
284591643,284591611,0.0047218436,-0.010137285,0.0074051907
284612038,284612004,0.00507618,-0.008482514,-0.0031096723
284633037,284633004,0.017283648,0.015840681,0.009472627
284653073,284653039,0.026843613,0.0048690313,0.0012920238
284677029,284676998,0.024351584,0.010888723,0.005075378
284696512,284696475,0.01612551,0.0065559996,-0.0020279668
284717033,284716997,-0.000103903476,-0.01383429,0.0041703703
284737029,284736998,0.0011540761,-0.013028748,0.000870062
284758031,284757998,-0.0034536503,-0.0040945234,-0.013723454
284783037,284783004,0.0078006526,0.005774358,0.006543839
284804037,284804004,0.012461094,-0.013066688,0.013348
284822036,284822004,0.010966953,-0.01193739,0.009540436
284844031,284843998,-0.00624378,-0.012137503,-0.005463534
284863035,284863004,-0.021528877,0.008171051,-0.006488907
284888041,284888001,-0.04430592,0.011574286,0.0026054862
284908031,284907997,-0.019185996,0.00892774,0.010569169
284927036,284927004,-0.0073897783,0.029871248,0.009972976
284948029,284947997,-0.007663709,0.0046756575,-0.006343164
284972074,284972040,-0.013655526,0.036626905,-0.0022751126
284992035,284992004,0.012748599,0.016038787,0.0048521124
285013031,285012998,-0.007394039,-0.0020093843,-0.012214004
285033029,285032998,0.010568325,-0.027000293,0.011621203
285053035,285053004,-0.0056920657,-0.020155229,0.003935076
285077038,285077004,0.00456816,-0.010345275,0.013237721
285097031,285096998,-0.010529357,-0.017264549,0.0054875263
285117029,285116997,0.0039678277,-0.0045469142,-0.011024591
285138037,285138004,-0.013728276,0.0076848147,0.008435807
285158035,285158004,-0.010177803,0.015944442,-0.003887685
285182073,285182039,-0.02159273,0.03576305,0.0036541866
285202033,285201998,-0.022091838,0.045843225,-0.0022118625
285223029,285222998,-0.010516827,0.03790856,0.010773177
285244031,285243998,-0.027998907,0.029813826,0.0034885136
285262029,285261998,-0.03421479,-0.0010270646,-0.008739011
285287029,285286998,-0.0019073784,-0.0038543933,-0.009986732
285306984,285306949,-0.00018474738,0.0035059727,-0.014190333
285328031,285327998,0.00471702,-0.012815905,-0.008746656
285348031,285347998,-0.007789221,-0.007971007,0.0077707754
285368031,285367998,-0.011784473,-0.014610096,0.01339874
285392073,285392039,-0.010246347,-0.04549036,-0.0064177457
285412037,285412004,-0.0017390302,-0.043032076,-0.0017888941
285433036,285433003,0.0068837316,-0.016643686,-0.003948205
285453029,285452998,-0.00027750852,0.0062428215,0.005101775
285473040,285473007,-0.009595006,0.0100106895,-0.010652061
285493037,285493004,-0.0057667783,0.028635044,-0.0029272262
285517031,285516998,-0.010978741,0.022791525,-0.009398303
285538037,285538004,-0.015357478,0.011315655,-0.014581849
285558035,285558004,-0.008772476,0.006342924,-0.0064402847
285578035,285578003,-0.011139663,-0.004028499,0.0007488612
285597031,285596998,-0.010402359,0.0061288304,0.0033852498
285623031,285622998,0.011444856,0.0005356417,0.010467431
285642037,285642004,0.02217929,-0.0048143836,0.0005251956
285663031,285662997,0.00997244,0.0277658,-0.00038636255
285682031,285681998,0.0048965914,0.034557283,0.009266785
285703036,285703004,-0.0009600817,0.02921676,0.016327422
285727031,285726998,-0.014235751,0.0007139897,-0.0072879093
285748035,285748003,0.01309423,-0.003281487,0.0034276638
285768029,285767998,0.024800561,-0.028565519,-0.006916365
285787031,285786997,0.031851966,-0.010981646,0.010000354
285811359,285811326,0.017749736,-0.036760062,-0.010013756
285832036,285832004,0.0016354846,-0.027656518,-0.003121956
285853039,285853005,-0.0026653465,-0.030580876,-0.00018870692
285873031,285872998,-0.0063257804,-0.021663668,0.0006826363
285893031,285892997,-0.010845019,-0.023027759,-0.008917992
285916301,285916268,-0.023753166,-0.006478747,0.012906148
285937029,285936998,-0.012925754,0.019428145,0.004407967
285958035,285958004,0.0011566582,0.040330302,0.008656654
285978031,285977998,0.022962818,0.015582343,-0.0018386748
285998071,285998039,0.02404326,0.016611397,0.01107585
286022031,286021998,0.019519132,0.014288734,0.0075598103
286042078,286042045,-0.0035948192,0.004386233,-0.008382305
286063036,286063003,-7.703638e-06,-0.0045142476,-0.006918335
286083031,286082998,-0.015696391,-0.0100151505,-0.0025599601
286103031,286102997,-0.034386426,-0.031729374,0.007989185
286123031,286122998,-0.012101782,-0.00036310597,-0.0033202658
286148037,286148004,-0.014531136,-0.01448679,-0.0016424443
286167031,286166997,-0.015755607,0.016663615,-0.0013467459
286187037,286187004,-0.004536172,0.0041682734,-0.008226643
286208076,286208040,0.02488947,0.020925928,0.015507926
286232031,286231998,0.03130618,0.046127893,-0.0047653415
286253036,286253003,0.018924043,0.03623621,0.014754021
286272035,286272004,0.027962357,0.022028377,-0.009190618
286292033,286292001,-0.0020436523,0.027609145,0.010815287
286313031,286312997,-0.00016750411,0.018469363,-0.012454287
286332029,286331997,-0.03320224,0.002647726,-0.005469214
286357029,286356998,-0.016768605,-0.011174095,-0.0063871546
286378031,286377997,-0.016429916,-0.00090806425,-0.00031888013
286397035,286397003,0.005893321,-0.02113373,-0.0077234716
286416266,286416227,0.028044997,-0.026908446,-0.012214586
286437036,286437004,0.030201018,-0.02855126,-0.013236006
286462031,286461998,0.0394452,-0.006105594,0.013229748
286483074,286483041,0.028004767,-0.017598007,-0.011506565
286504031,286503998,0.038187448,0.008019786,-0.008254744
286523035,286523004,0.011074503,0.0037464898,-0.003692692
286542034,286541998,-0.0008816745,-0.0021691718,0.00392662
286567029,286566998,-0.028283292,0.016261669,-0.0035041452
286588031,286587998,-0.02962455,0.0027916199,0.0014215788
286608036,286608003,-0.03494135,-0.014572931,-0.014169139
286627032,286627000,-0.032660604,-0.021300422,-0.0144207105
286648073,286648039,-0.029104201,-0.014969845,-0.012071951
286673029,286672998,-0.006029502,-0.0035353126,-0.0064373026
286692071,286692039,0.02095915,0.011285671,-0.010896265
286712031,286711997,0.02609265,0.014259928,0.014371281
286733034,286733001,0.019449715,0.016502405,0.0059307977
286757029,286756998,0.032271992,0.035565004,-0.004422199
286778031,286777998,0.0525247,0.029185522,0.0008087401
286797029,286796998,0.032474883,0.02434337,0.010130305
286818031,286817997,0.0342167,0.0075574815,0.0086828265
286837029,286836998,0.012908713,-0.021462716,0.009374042
286858035,286858001,-0.034669235,-0.016666336,-0.0038660425
286883037,286883004,-0.043912612,-0.050394677,-0.011032323
286903037,286903004,-0.047233574,-0.039790723,-0.0014774068
286923073,286923040,-0.020607881,-0.042621307,0.008849269
286942031,286941997,-0.01595169,-0.018088995,-0.004017704
286962029,286961998,-0.0067780954,-0.005428499,-0.0066119307
286988037,286988004,0.0006475103,-0.020704992,-0.004043482
287008040,287008007,0.013868983,-0.0031496217,0.00023410078
287026322,287026288,-0.00064481003,-0.019308794,0.0013017142
287047039,287047003,0.013996434,-0.013839912,0.014447811
287072037,287072004,-0.018639365,-0.0004756924,-0.0142112775
287092035,287092004,-0.007323575,-0.005555096,0.006558925
287113031,287112998,-0.0014439828,-0.005077774,-0.0012728411
287132073,287132039,-0.0071382658,0.02638502,0.0021502976
287152035,287152004,-0.012790296,0.0071442616,0.009420248
287172037,287172004,-0.008728763,0.016828826,-0.0062775766
287198071,287198039,-0.002360594,-0.008267346,-0.007689675
287218029,287217998,0.0042713205,-0.0040657716,-0.008573514
287237031,287236997,0.02630527,0.004471538,-0.0069257123
287258031,287257997,0.041295726,-0.021813914,-0.012669353
287282040,287282007,0.021059604,-0.021061065,-0.012583954
287303031,287302998,0.0031856338,-0.027199209,-0.0069653573
287322037,287322004,0.009713475,-0.0008330278,-0.014117996
287343031,287342998,0.0037167633,-0.0042502033,-0.0016436033
287362037,287362004,-0.0071144686,0.021277351,0.00088370574
287387029,287386998,0.015455183,0.02317258,-0.0005589256
287408071,287408039,0.014648869,-0.008102449,0.0086302245
287428037,287428004,0.0027802025,-0.0030824128,-0.0065887896
287448029,287447998,0.012879539,-0.014939537,0.0025090089
287468037,287468004,0.017944578,-0.006930756,0.010572924
287492037,287492004,0.009551406,-0.009472977,0.0075049456
287513039,287513005,-0.003882454,0.019696286,0.0133830365
287532037,287532004,-0.0169122,0.013152373,-0.013976681
287553031,287552998,-0.006308756,0.012377242,-0.011844734
287573072,287573040,-0.003881116,0.024698501,0.0008989384
287593035,287593004,-0.015294153,-0.001574591,-0.0048028557
287617074,287617041,-0.008204067,0.0107065905,0.004515514
287638031,287637998,0.0076785428,-0.010821209,0.005144276
287657031,287656997,0.005968949,0.0069398885,0.0073416927
287678047,287678007,0.016023498,-0.0086356625,-0.0088634975
287702035,287702004,-0.02070134,-0.007779466,-0.0010410235
287722040,287722004,-0.02773101,0.0010858763,-0.0036470694
287741391,287741358,-0.0123664085,0.003905693,-0.011816792
287763029,287762997,-0.021839093,-0.0009389878,0.009318358
287783044,287783001,-0.027466249,0.024355102,0.00036796753
287807037,287807004,-0.020819716,-0.0007444086,0.014400836
287828034,287828001,0.013622108,0.00039916846,-0.010555775
287846121,287846090,0.01304604,0.015094382,0.0022201445
287868037,287868004,0.027045585,0.020680107,-3.879994e-05
287887033,287886997,0.04314346,0.017789021,-0.008608624
287908031,287907998,0.020523926,-0.0067054476,-0.002862285
287933034,287933001,0.00761752,-0.013497636,-0.008414212
287950905,287950874,-0.00055892335,-0.016884753,0.0018724239
287972031,287971997,-0.022292135,-0.00494273,-0.0026472618
287993031,287992997,-0.031341746,0.011438669,0.008617901
288013029,288012998,-0.04065307,0.01956504,0.012858472
288037031,288036998,-0.02593215,0.014053985,-0.004430667
288058071,288058039,-0.016278341,-0.0069582826,-0.0037627432
288078036,288078003,-0.016716605,-0.01498983,0.0063183107
288097046,288097012,-0.0069806855,0.00863025,0.008064596
288122031,288121998,0.0061740945,-0.00925455,0.012545287
288142035,288142004,0.010467033,0.009627081,-0.011071068
288163031,288162998,0.012737001,-0.005602397,-0.0064473245
288182035,288182004,0.0061921244,-9.057885e-05,0.010255019
288202034,288202001,0.030604627,0.008262812,0.011716465
288223072,288223040,0.0024230024,0.018902259,-0.011382174
288247031,288246998,-7.039502e-05,0.027363257,0.00845908
288268031,288267998,0.0044254204,0.010860264,0.006356875
288288037,288288004,-0.015708435,0.0016720999,0.00067168614
288308037,288308004,-0.020280434,0.019843116,-0.0037993705
288332037,288332004,-0.020545552,0.0045345426,0.014737167
288351917,288351884,-0.0036334486,0.0072789914,-0.003544716
288372029,288371998,-0.0054281084,0.0073039853,0.00042083202
288393031,288392998,-0.020337487,0.02619184,-0.00596849
288413037,288413004,-0.01924942,0.03021896,-0.013399556
288433031,288432998,0.003099979,0.007130745,-0.0027319212
288456382,288456349,-0.018745435,0.010724201,-0.008448821
288478035,288478004,-0.004400924,0.001981928,-0.007079746
288498075,288498042,-0.015837599,0.011558405,0.009952069
288517031,288516998,0.008048721,-0.006257689,-0.009091848
288538037,288538004,0.007025639,-0.010023271,-0.0027250343
288563029,288562998,0.0005061557,-0.009241013,-0.008609109
288583035,288583004,0.010200738,0.00081110664,0.01480108
288603031,288602998,0.0074174423,0.017895991,0.0065770857
288623034,288622998,-0.021605557,0.035637166,0.0062126517
288647045,288647004,-0.026938153,0.015184479,0.008345671
288668035,288668003,-0.0174245,0.000528742,0.0036557857
288688029,288687998,-0.02911734,0.014173998,0.002608492
288709029,288708998,-0.023689704,0.018061003,-0.014316075
288728033,288728001,-0.03018769,0.006547634,-0.011417362
288748029,288747998,-0.027812336,0.026038865,-0.003816862
288772031,288771998,0.0014461003,0.005055945,0.0011383116
288793031,288792998,0.020490004,0.0073095798,0.007404037
288813029,288812998,0.02261247,-0.0017468582,-0.0055998247
288832034,288832001,0.009749035,-0.011793191,0.0075249947
288857031,288856998,0.029143052,-0.03103747,0.008188842
288873029,288872997,0.021067295,-0.010661277,-0.007977635
288897031,288896997,0.0118217375,0.009334505,0.014508645
288917029,288916997,-0.0012518067,-0.015342382,-0.010359839
288938074,288938040,-0.012862896,-0.015850333,-0.003608721
288958029,288957998,-0.030712452,-0.022406312,0.002898726
288983035,288983004,-0.034402065,-0.02972756,0.007045334
289003031,289002998,-0.023220858,-0.019132916,0.010916074
289022035,289022003,-0.008807042,-0.016215038,-0.007390932
289043037,289043004,-0.018056337,0.013928693,0.00028924833
289066450,289066417,-0.012055065,0.018876363,-0.005823048
289087035,289087004,-0.00725603,0.023772037,0.015366078
289108029,289107998,-0.008756892,0.015332945,0.005511003
289127031,289126997,0.004096423,-0.009168398,-0.0036818532
289148037,289148004,0.0024002378,-0.0029065644,-0.011462951
289172031,289171998,0.015631199,0.00029351967,0.005109929
289193031,289192998,0.012063764,0.0032770063,0.0063067363
289213077,289213039,0.0037893355,0.0039851177,0.007643699
289232037,289232004,-0.024685444,0.008011692,0.008891795
289253031,289252997,-0.012567196,0.009972459,-0.0059906137
289277038,289277006,0.0061798114,0.013624699,-0.0029612223
289297029,289296998,-0.003715179,-0.009533188,0.00011525693
289317037,289317004,-0.0057024607,0.0012318335,-0.0068223923
289337031,289336997,-0.005911615,0.011180724,0.010392914
289358031,289357997,0.0028489064,-0.00012552325,-0.007864091
289378072,289378040,-0.00517623,-0.005055053,-0.0081525855
289402034,289401998,-0.0088278735,-0.008922842,-0.0032076447
289423035,289423003,-0.012149681,-0.0065474967,0.004232653
289442029,289441997,0.002068192,-0.024727639,0.002527824
289463037,289463004,0.0058855293,-0.0019248875,-0.0012144512
289482039,289482005,0.0073099947,-0.018882556,0.008753669
289507031,289506998,-0.009653685,-0.0096143745,0.004386184
289528029,289527998,-0.003021181,-0.018132446,-0.013562768
289548031,289547998,-0.0141556915,0.004705851,0.011658934
289568037,289568004,-0.03100996,0.017180951,-0.011748565
289587076,289587043,-0.008741983,-0.006910384,0.0153708095
289612031,289611998,-0.018380078,-0.008320548,-0.010997059
289633031,289632998,0.00035059106,-0.00046347987,0.014659973
289652037,289652004,-0.018370131,-0.014919388,-0.006493546
289672031,289671998,-0.010517745,0.0040651155,-0.0035188626
289697072,289697040,0.01356911,0.0062478185,-0.0006232375
289718031,289717998,0.008998562,0.001849345,-0.00018082937
289738031,289737998,-0.008431546,-0.012384171,-0.009022824
289758035,289758003,-0.013618532,-0.022508383,0.012409555
289781052,289781020,-0.025808219,-0.029445868,0.0068431576
289802038,289802004,0.0011464721,-0.036874328,-0.0071693594
289823031,289822998,0.028164718,-0.02929796,-0.0054337094
289844037,289844004,0.028890843,-0.027965581,0.0070059756
289862074,289862040,0.012648784,-0.008807358,-0.007801088
289881322,289881290,0.009849385,-0.007857109,0.0140746655
289903031,289902998,-0.0015294639,-0.0057025817,0.008872834
289927036,289927003,0.010418811,0.01829667,-0.0030999447
289948029,289947998,0.0073230374,0.01882557,0.017117923
289968029,289967998,0.00725356,0.016075214,0.0026342508
289986418,289986384,-0.0069740517,0.008346441,0.002414249
290012035,290012004,0.011316265,0.0054824753,-0.0026968066
290032031,290031998,0.012639536,0.02291859,-0.01044575
290053037,290053004,0.011677977,0.0061823404,0.0048656864
290072074,290072040,0.0054777586,0.0035519928,0.011261528
290093035,290093004,0.002217237,-0.0070918086,-0.0059246006
290117037,290117004,-0.015015156,-0.03047916,-4.50464e-05
290132037,290132004,0.008677664,-0.025362289,-0.0037568086
290158029,290157998,-0.007874752,-0.013593498,-0.009676891
290177031,290176997,-0.011184625,0.0046170033,0.010639032
290198031,290197997,0.014720967,-0.019508857,0.014656701
290222037,290222004,0.0038813574,-0.014936792,0.010720454
290242031,290241998,-0.015134483,-0.005108448,-0.0019448483
290263038,290263004,0.01650072,-0.014206182,-0.008204787
290282073,290282039,-0.0086400155,-0.026317177,-0.0031741275
290303034,290303001,0.00058714114,-0.020209843,0.0029934812
290322031,290321998,0.011782025,-0.017655073,-0.008451389
290347037,290347004,-0.009080585,-0.025754772,-0.0099527305
290367033,290367002,-0.00882444,-0.016783593,-0.008124543
290702031,290701997,-0.0061299102,-0.02323415,0.0006693447
290722038,290722004,-0.004957345,-0.018541034,0.00039907382
290743037,290743004,0.0027417433,-0.0034513285,-0.0004586078
290768037,290768004,0.0085215615,0.0027423361,-0.0024002392
290788036,290788003,0.013613953,0.0075114225,-0.00081291795
291163073,291163039,-0.058485877,0.007549555,-0.004034557
291187031,291186998,-0.040326502,-0.01708873,-0.01278464
291207071,291207040,-0.0012189134,-0.00082409574,-0.012906216
291228033,291228001,0.023745025,0.01170888,-0.010440431
291248029,291247997,0.053928815,-0.0014937319,0.0061971396
291268037,291268004,0.058623593,0.02092665,-0.00092368503
291293035,291293004,0.044860065,0.015978465,0.008965106
291312037,291312004,0.015561434,0.017867427,0.00940634
291332041,291332007,0.014154477,0.016038863,0.0016735675
291354031,291353997,0.0014582851,0.015314815,0.008877319
291372077,291372044,0.027500482,-0.004074773,0.002644734
291398029,291397998,0.03436752,-0.0072822645,-0.009932931
291418031,291417998,0.040606987,0.009547791,-0.0098978225
291437036,291437004,0.02905831,0.0021192748,0.0015328954
291457035,291457003,0.043695744,0.01612979,-0.010069054
291477035,291477004,0.011547549,0.025629899,0.013695102
291502038,291502004,-0.024975391,0.013912214,0.0072209355
291522031,291521998,-0.034486707,0.024005335,0.006514782
291542039,291542007,-0.041503627,-0.008153302,0.0013501665
291563037,291563004,-0.023095613,0.0013147384,0.010491317
291582037,291582004,-0.027076531,-0.010469751,-0.007189655
291606194,291606161,-0.025840033,-0.008264951,0.011853918
291628035,291628004,-0.009376388,0.009488116,-0.006716405
291648036,291648004,-0.018924946,0.0162743,0.007489515
291667031,291666998,-0.0063352613,0.037592523,-0.0069161057
291688037,291688004,-0.00455331,0.017259944,0.00044909876
291713085,291713040,0.0059154476,0.014419273,0.0034044585
291733037,291733004,0.003808665,0.007027494,-0.008890706
291753031,291752998,0.0038891626,0.014155038,0.0076503684
291773037,291773004,0.0013516846,0.03343104,-0.0048021707
291792037,291792004,-2.1219184e-06,0.008396431,0.0037609395
291818037,291818004,0.012178316,0.013973123,-0.0044598775
291838037,291838004,0.0007094982,0.010498315,0.00081060996
291858031,291857998,0.012374557,-0.013786895,0.009394793
291878071,291878039,0.035488594,-0.033667583,-0.014498447
291898029,291897998,0.0074570486,-0.028076204,-0.0048857387
291923031,291922998,0.029434133,-0.022809654,-0.012624904
291943029,291942998,0.017739808,0.0014720401,-0.0059293853
291963037,291963004,-0.014388169,0.021456357,0.011983023
291983031,291982997,-0.022113739,0.022946412,-0.015772017
292003038,292003004,-0.0059634526,0.0018270398,-0.015410463
292028029,292027998,-0.011634339,0.041978173,0.0025665076
292048029,292047998,0.0088517675,0.019316092,-0.004889534
292068037,292068004,-0.0010620338,0.030763112,0.011669559
292087071,292087040,-0.018963771,0.0052203676,-0.0047657588
292111613,292111578,-0.018094173,-0.00336254,0.008416162
292132037,292132004,0.00627728,-0.004457864,0.014502295
292153074,292153041,0.005262246,-0.023595879,-0.006181479
292173029,292172998,-0.026028696,-0.016905775,-0.013314637
292192037,292192004,-0.009414889,-0.024119776,0.00091336283
292211692,292211659,-0.019220248,-0.016078353,0.012305693
292238037,292238004,-0.019936632,0.012726358,-0.00014285758
292257037,292257004,-0.029448904,0.00043918594,0.008134108
292278031,292277998,-0.005897583,0.015816987,-0.012449087
292297037,292297004,0.010984025,0.016839536,-0.008965242
292317031,292316997,0.007928441,0.0005669869,0.011337165
292342033,292342002,0.013967725,0.0071710516,-0.010664548
292362073,292362039,0.0076775188,-0.0025761826,0.007431104
292383029,292382998,-0.009595726,0.016952515,-0.009676718
292403037,292403004,0.0038747846,0.00851671,0.013831891
292427031,292426998,0.0039268844,-0.009108276,0.0039659836
292448038,292448004,0.01675812,-0.026177803,0.01038964
292467037,292467004,0.026654866,-0.03959818,-0.008757675
292488031,292487998,0.018356735,-0.032870255,0.008954474
292508029,292507997,0.027780635,-0.0045294114,-0.009377849
292527074,292527041,0.019177394,-0.0038624587,-0.010658829
292553037,292553004,-0.0016229319,-0.000635786,-0.0014729348
292572034,292571998,-0.005392137,-0.0060761515,0.015730526
292592037,292592004,-0.007896264,-0.018327933,0.008643453
292613036,292613003,0.0012595686,-0.011555154,-0.0010096388
292633029,292632998,0.018618733,0.01604394,0.0057069184
292658036,292658004,0.009231799,-0.0075624576,0.0060396926
292678029,292677998,-0.007096276,-0.0067278403,-0.0036382866
292697029,292696997,-0.014323403,-0.005088774,0.003892324
292716459,292716426,-0.026543211,-0.0074018124,0.009260148
292742037,292742004,-0.023218,-0.019686805,-0.015044515
292762035,292762004,-0.01878739,-0.014995914,-0.0129199065
292783031,292782998,-0.018241001,0.012248907,0.009457985
292803073,292803039,-0.013101877,0.005424641,0.002230098
292823029,292822997,0.019900749,0.032329407,-0.0012442438
292847073,292847041,-0.003419379,0.016316406,-0.00997821
292867041,292867004,0.012751622,0.023401354,-0.014002026
292888035,292888004,0.015518003,0.025842754,-0.0007160996
292908034,292908001,0.014959995,0.023857335,0.008808938
292928031,292927997,0.009557145,0.0074330824,0.0072793206
292948038,292948004,0.013207315,0.00987372,0.002512091
292973037,292973004,-0.015650315,-0.015896427,-0.012797406
292992037,292992004,-0.02487132,-0.008405481,-0.00091386575
293012073,293012039,-0.022216631,-0.05139685,0.011832583
293032037,293032004,-0.029034719,-0.057078905,-0.0027967107
293057031,293056998,-0.005648222,-0.029861733,0.0055106725
293073035,293073004,-0.011767531,-0.02212048,-0.0060441797
293098037,293098004,0.02063519,-0.012897173,-0.003178338
293118035,293118004,0.023951303,-0.008947605,-0.0029934065
293137031,293136998,0.010902377,-0.0036279857,-0.009307224
293158036,293158003,0.013163923,0.005185735,0.010479193
293183044,293183012,0.0063035144,-0.003827378,0.007316861
293203036,293203003,-0.026947498,0.012512642,0.0067048073
293223035,293223004,-0.020378025,0.02181752,0.0059589264
293243073,293243039,-0.022078544,0.031893987,-0.011381547
293267047,293267008,-0.038691644,0.009621166,-0.0016773251
293288029,293287998,-0.01935121,-0.0077565084,-0.0047872793
293308029,293307998,-0.0071086055,0.014366952,-0.00069937867
293326392,293326358,-0.0032579736,-0.0086810095,0.015550434
293348037,293348004,0.0031455397,-0.0015758282,-0.0015142696
293368029,293367998,-0.004145998,0.008877705,-0.0004448389
293393037,293393004,-0.0034258883,-0.011708454,-0.012162356
293412037,293412004,0.0013831113,-0.0043184883,-0.00081250025
293432037,293432004,0.0053334576,-0.030817764,0.011418654
293453034,293453001,-0.010515839,-0.015940484,-0.01176522
293472029,293471998,0.0017475755,-0.013106418,0.00012559017
293496243,293496209,-0.004289298,-0.013761459,0.010027414
293518092,293518058,-0.018985668,-0.0024735278,-0.0077178557
293538037,293538004,-0.01908922,0.010168968,-0.0028218303
293558039,293558006,-0.05067915,0.027480446,0.008922314
293577031,293576998,-0.03419901,0.013512673,0.005423846
293603035,293603004,-0.011463423,0.0055526644,-0.010680701
293623037,293623004,0.0120187,0.026661044,-0.0016801121
293643031,293642998,0.009179521,0.013580165,0.0023276098
293662073,293662039,0.016623769,0.01908379,0.0116749685
293687029,293686998,0.010323298,-0.010844927,0.009606384
293708031,293707998,0.004565004,0.009845315,0.009373673
293728073,293728039,0.007369043,0.004123418,0.009064547
293748029,293747998,0.0039725425,-0.0034822496,-0.010457757
293768031,293767997,-0.013396556,0.004556367,0.008221817
293792029,293791997,-0.034630895,0.0024364027,-0.015009755
293813036,293813003,-0.03952766,-0.027596382,-0.016339855
293831609,293831577,-0.024392858,-0.0035648807,-0.0024256653
293853035,293853004,-0.014897122,0.0044593047,-0.015197353
293873037,293873004,0.0065935943,0.0031309566,-0.013432965
293892031,293891997,-0.0051226136,0.013214276,0.008569401
293918035,293918004,-0.008312196,0.018216776,-0.0138754025
293938029,293937998,-0.0006025123,0.026339188,-0.010282009
293958031,293957997,0.0055625015,0.023555262,-0.0050696605
293978031,293977997,-0.0016675534,0.014328369,0.007973067
